city|city_ascii|state_id|state_name|county_fips|county_name|lat|lon|population|density|source|military|incorporated|timezone|ranking|id
Caledonia|Caledonia|OH|Ohio|39101|Marion|40.6364|-82.9695|665|774.1|shape|FALSE|TRUE|America/New_York|3|1840010389
San Luis|San Luis|CO|Colorado|08023|Costilla|37.2025|-105.4225|665|452|shape|FALSE|TRUE|America/Denver|3|1840022549
Grimes|Grimes|AL|Alabama|01045|Dale|31.2999|-85.4503|665|205|shape|FALSE|TRUE|America/Chicago|3|1840003500
Culbertson|Culbertson|MT|Montana|30085|Roosevelt|48.1447|-104.5183|665|250|shape|FALSE|TRUE|America/Denver|3|1840021072
Fairview Crossroads|Fairview Crossroads|SC|South Carolina|45063|Lexington|33.7577|-81.3621|665|44|shape|FALSE|FALSE|America/New_York|3|1840107256
Marion Heights|Marion Heights|PA|Pennsylvania|42097|Northumberland|40.8036|-76.4643|665|687.3|shape|FALSE|TRUE|America/New_York|3|1840000844
Campobello|Campobello|SC|South Carolina|45083|Spartanburg|35.1260|-82.1488|665|92|shape|FALSE|TRUE|America/New_York|3|1840015481
Bowdens|Bowdens|NC|North Carolina|37061|Duplin|35.0579|-78.1128|665|188|shape|FALSE|FALSE|America/New_York|3|1840088146
Glenwood|Glenwood|UT|Utah|49041|Sevier|38.7625|-111.9876|664|492|shape|FALSE|TRUE|America/Denver|3|1840021479
Valle Vista|Valle Vista|NM|New Mexico|35049|Santa Fe|35.5841|-106.0584|664|621.4|shape|FALSE|FALSE|America/Denver|3|1840141891
Potosi|Potosi|WI|Wisconsin|55043|Grant|42.6876|-90.7105|664|154|shape|FALSE|TRUE|America/Chicago|3|1840002982
Kadoka|Kadoka|SD|South Dakota|46071|Jackson|43.8325|-101.5081|664|112|shape|FALSE|TRUE|America/Denver|3|1840002587
Ireton|Ireton|IA|Iowa|19167|Sioux|42.9749|-96.3216|664|251|shape|FALSE|TRUE|America/Chicago|3|1840007984
Woodland Hills|Woodland Hills|KY|Kentucky|21111|Jefferson|38.2393|-85.5289|664|785.4|shape|FALSE|TRUE|America/New_York|3|1840015203
Cowen|Cowen|WV|West Virginia|54101|Webster|38.4110|-80.5542|664|407|shape|FALSE|TRUE|America/New_York|3|1840006159
Kirtland Hills|Kirtland Hills|OH|Ohio|39085|Lake|41.6362|-81.3192|664|46|shape|FALSE|TRUE|America/New_York|3|1840000536
North Rose|North Rose|NY|New York|36117|Wayne|43.1872|-76.8863|664|151|shape|FALSE|FALSE|America/New_York|3|1840026167
Metamora|Metamora|MI|Michigan|26087|Lapeer|42.9422|-83.2897|664|308|shape|FALSE|TRUE|America/Detroit|3|1840011001
Quilcene|Quilcene|WA|Washington|53031|Jefferson|47.8369|-122.9058|664|29|shape|FALSE|FALSE|America/Los_Angeles|3|1840018389
Roeville|Roeville|FL|Florida|12113|Santa Rosa|30.6836|-86.9927|663|59|shape|FALSE|FALSE|America/Chicago|3|1840025119
Kiowa|Kiowa|CO|Colorado|08039|Elbert|39.3436|-104.4580|663|297|shape|FALSE|TRUE|America/Denver|3|1840021450
Oneida Castle|Oneida Castle|NY|New York|36065|Oneida|43.0812|-75.6331|663|513|shape|FALSE|TRUE|America/New_York|3|1840004208
Kingsville|Kingsville|OH|Ohio|39007|Ashtabula|41.8869|-80.6771|663|92|shape|FALSE|FALSE|America/New_York|3|1840140471
Kennard|Kennard|IN|Indiana|18065|Henry|39.9054|-85.5222|663|604|shape|FALSE|TRUE|America/Indiana/Indianapolis|3|1840010532
Homeworth|Homeworth|OH|Ohio|39029|Columbiana|40.8357|-81.0649|663|206|shape|FALSE|FALSE|America/New_York|3|1840026397
Welch|Welch|OK|Oklahoma|40035|Craig|36.8743|-95.0946|663|499|shape|FALSE|TRUE|America/Chicago|3|1840022601
Central City|Central City|AR|Arkansas|05131|Sebastian|35.3300|-94.2347|663|115|shape|FALSE|TRUE|America/Chicago|3|1840016378
The Cliffs Valley|The Cliffs Valley|SC|South Carolina|45045|Greenville|35.1458|-82.4481|663|39|shape|FALSE|FALSE|America/New_York|3|1840147797
Sandersville|Sandersville|MS|Mississippi|28067|Jones|31.7879|-89.0362|663|51|shape|FALSE|TRUE|America/Chicago|3|1840018162
Ozark Acres|Ozark Acres|AR|Arkansas|05135|Sharp|36.3000|-91.3871|663|36|shape|FALSE|FALSE|America/Chicago|3|1840039644
Canistota|Canistota|SD|South Dakota|46087|McCook|43.5978|-97.2926|663|456|shape|FALSE|TRUE|America/Chicago|3|1840002658
North Washington|North Washington|CO|Colorado|08001|Adams|39.8084|-104.9792|663|49|shape|FALSE|FALSE|America/Denver|3|1840028566
Fairland|Fairland|IN|Indiana|18145|Shelby|39.5849|-85.8627|662|223|shape|FALSE|TRUE|America/Indiana/Indianapolis|3|1840022449
Millington|Millington|IL|Illinois|17099|LaSalle|41.5623|-88.6024|662|360|shape|FALSE|TRUE|America/Chicago|3|1840011506
Bayview|Bayview|TX|Texas|48061|Cameron|26.1327|-97.3974|662|65|shape|FALSE|TRUE|America/Chicago|3|1840021042
Elgin|Elgin|ND|North Dakota|38037|Grant|46.4014|-101.8474|662|310|shape|FALSE|TRUE|America/Denver|3|1840000202
McDonald Chapel|McDonald Chapel|AL|Alabama|01073|Jefferson|33.5190|-86.9385|662|240|shape|FALSE|FALSE|America/Chicago|3|1840013725
Cowiche|Cowiche|WA|Washington|53077|Yakima|46.6719|-120.7120|662|307|shape|FALSE|FALSE|America/Los_Angeles|3|1840023852
Bluford|Bluford|IL|Illinois|17081|Jefferson|38.3257|-88.7350|662|163|shape|FALSE|TRUE|America/Chicago|3|1840012910
Troy|Troy|IN|Indiana|18123|Perry|38.0018|-86.7991|661|225|shape|FALSE|TRUE|America/Indiana/Tell_City|3|1840010817
The Lakes|The Lakes|MN|Minnesota|27101|Murray|44.1359|-95.7083|661|7|shape|FALSE|FALSE|America/Chicago|3|1840032018
Paxton|Paxton|FL|Florida|12131|Walton|30.9746|-86.3099|661|68|shape|FALSE|TRUE|America/Chicago|3|1840017165
Wartrace|Wartrace|TN|Tennessee|47003|Bedford|35.5253|-86.3301|661|291|shape|FALSE|TRUE|America/Chicago|3|1840016309
Deweyville|Deweyville|TX|Texas|48351|Newton|30.3032|-93.7590|661|22|shape|FALSE|FALSE|America/Chicago|3|1840019557
Virginia City|Virginia City|NV|Nevada|32029|Storey|39.3074|-119.6483|661|294|shape|FALSE|FALSE|America/Los_Angeles|3|1840026641
Delaware Water Gap|Delaware Water Gap|PA|Pennsylvania|42089|Monroe|40.9750|-75.1392|661|132|shape|FALSE|TRUE|America/New_York|3|1840003510
Clinton|Clinton|MT|Montana|30063|Missoula|46.7718|-113.7169|661|78|shape|FALSE|FALSE|America/Denver|3|1840017347
Blair|Blair|OK|Oklahoma|40065|Jackson|34.7804|-99.3332|660|512|shape|FALSE|TRUE|America/Chicago|3|1840021845
Lake Hughes|Lake Hughes|CA|California|06037|Los Angeles|34.6832|-118.4588|660|24|shape|FALSE|FALSE|America/Los_Angeles|3|1840025003
Gaylordsville|Gaylordsville|CT|Connecticut|09005|Litchfield|41.6410|-73.4826|660|160|shape|FALSE|FALSE|America/New_York|3|1840044523
St. Mary's|St. Mary's|AK|Alaska|02158|Kusilvak|62.0718|-163.2805|660|5|shape|FALSE|TRUE|America/Nome|4|1840075119
Point Hope|Point Hope|AK|Alaska|02185|North Slope|68.3445|-166.6738|660|50|shape|FALSE|TRUE|America/Nome|3|1840023484
Maguayo|Maguayo|PR|Puerto Rico|72079|Lajas|18.0100|-67.0855|660|703.7|shape|FALSE|FALSE|America/Puerto_Rico|3|1630035707
Webster|Webster|WI|Wisconsin|55013|Burnett|45.8798|-92.3628|660|145|shape|FALSE|TRUE|America/Chicago|3|1840001994
Perdido|Perdido|AL|Alabama|01003|Baldwin|31.0034|-87.6323|660|22|shape|FALSE|FALSE|America/Chicago|3|1840027534
Circleville|Circleville|UT|Utah|49031|Piute|38.1684|-112.2716|660|23|shape|FALSE|TRUE|America/Denver|3|1840022514
Fleming|Fleming|CO|Colorado|08075|Logan|40.6821|-102.8396|660|520|shape|FALSE|TRUE|America/Denver|3|1840021379
Kinsman Center|Kinsman Center|OH|Ohio|39155|Trumbull|41.4544|-80.5854|660|115|shape|FALSE|TRUE|America/New_York|4|1840040317
Braymer|Braymer|MO|Missouri|29025|Caldwell|39.5905|-93.7961|660|431|shape|FALSE|TRUE|America/Chicago|3|1840005588
Indianola|Indianola|CA|California|06023|Humboldt|40.8133|-124.0808|660|180|shape|FALSE|FALSE|America/Los_Angeles|3|1840026322
Trufant|Trufant|MI|Michigan|26117|Montcalm|43.3172|-85.3528|660|266|shape|FALSE|FALSE|America/Detroit|3|1840031690
Colbert|Colbert|GA|Georgia|13195|Madison|34.0370|-83.2139|659|249|shape|FALSE|TRUE|America/New_York|3|1840014725
Parker School|Parker School|MT|Montana|30041|Hill|48.2468|-109.7341|659|34|shape|FALSE|FALSE|America/Denver|3|1840032836
Heuvelton|Heuvelton|NY|New York|36089|St. Lawrence|44.6170|-75.4047|659|334|shape|FALSE|TRUE|America/New_York|3|1840004057
Van Bibber Lake|Van Bibber Lake|IN|Indiana|18133|Putnam|39.7291|-86.9297|659|536.3|shape|FALSE|FALSE|America/Indiana/Indianapolis|3|1840026609
Gila Crossing|Gila Crossing|AZ|Arizona|04013|Maricopa|33.2731|-112.1627|659|292|shape|FALSE|FALSE|America/Phoenix|3|1840025866
Marshall|Marshall|NC|North Carolina|37115|Madison|35.7973|-82.6818|658|63|shape|FALSE|TRUE|America/New_York|3|1840016211
Melba|Melba|ID|Idaho|16027|Canyon|43.3726|-116.5322|658|635|shape|FALSE|TRUE|America/Boise|3|1840020039
Alma|Alma|WI|Wisconsin|55011|Buffalo|44.3374|-91.9221|658|47|shape|FALSE|TRUE|America/Chicago|3|1840002379
Scotland|Scotland|SD|South Dakota|46009|Bon Homme|43.1481|-97.7199|658|283|shape|FALSE|TRUE|America/Chicago|3|1840003063
Ona|Ona|FL|Florida|12049|Hardee|27.4830|-81.9097|658|9|shape|FALSE|FALSE|America/New_York|3|1840025170
Marengo|Marengo|IN|Indiana|18025|Crawford|38.3714|-86.3444|658|328|shape|FALSE|TRUE|America/Indiana/Marengo|3|1840009818
Harleyville|Harleyville|SC|South Carolina|45035|Dorchester|33.2130|-80.4478|658|240|shape|FALSE|TRUE|America/New_York|3|1840016885
Crowell|Crowell|TX|Texas|48155|Foard|33.9839|-99.7241|658|134|shape|FALSE|TRUE|America/Chicago|3|1840019276
Sherwood Shores|Sherwood Shores|TX|Texas|48181|Grayson|33.8478|-96.8147|658|89|shape|FALSE|FALSE|America/Chicago|3|1840025871
Nicholson|Nicholson|PA|Pennsylvania|42131|Wyoming|41.6268|-75.7862|658|218|shape|FALSE|TRUE|America/New_York|3|1840000579
Warrior Run|Warrior Run|PA|Pennsylvania|42079|Luzerne|41.1885|-75.9494|658|384|shape|FALSE|TRUE|America/New_York|3|1840000772
Remy|Remy|OK|Oklahoma|40135|Sequoyah|35.4578|-94.4984|658|19|shape|FALSE|FALSE|America/Chicago|3|1840034582
New Straitsville|New Straitsville|OH|Ohio|39127|Perry|39.5793|-82.2343|658|195|shape|FALSE|TRUE|America/New_York|3|1840012484
Johnson Siding|Johnson Siding|SD|South Dakota|46103|Pennington|44.0846|-103.4380|658|68|shape|FALSE|FALSE|America/Denver|3|1840026124
Pennwyn|Pennwyn|PA|Pennsylvania|42011|Berks|40.2895|-75.9731|658|478|shape|FALSE|FALSE|America/New_York|3|1840035149
Lyons|Lyons|OH|Ohio|39051|Fulton|41.7004|-84.0718|658|359|shape|FALSE|TRUE|America/New_York|3|1840011513
Ramona|Ramona|OK|Oklahoma|40147|Washington|36.5367|-95.9264|657|309|shape|FALSE|TRUE|America/Chicago|3|1840021601
Palo Seco|Palo Seco|PR|Puerto Rico|72095|Maunabo|18.0093|-65.9370|657|558|shape|FALSE|FALSE|America/Puerto_Rico|3|1630035537
Malden|Malden|WV|West Virginia|54039|Kanawha|38.3008|-81.5580|657|336.4|shape|FALSE|FALSE|America/New_York|3|1840038268
Hill City|Hill City|MN|Minnesota|27001|Aitkin|46.9831|-93.5959|657|227|shape|FALSE|TRUE|America/Chicago|3|1840000191
New Hamburg|New Hamburg|NY|New York|36027|Dutchess|41.5891|-73.9428|657|528|shape|FALSE|FALSE|America/New_York|3|1840084686
Canton|Canton|KS|Kansas|20113|McPherson|38.3857|-97.4303|657|510|shape|FALSE|TRUE|America/Chicago|3|1840007487
Taholah|Taholah|WA|Washington|53027|Grays Harbor|47.3283|-124.2728|657|73|shape|FALSE|FALSE|America/Los_Angeles|3|1840018447
Doe Run|Doe Run|MO|Missouri|29187|St. Francois|37.7454|-90.4994|657|105|shape|FALSE|FALSE|America/Chicago|3|1840025695
Fairview|Fairview|AL|Alabama|01043|Cullman|34.2501|-86.6846|657|118|shape|FALSE|TRUE|America/Chicago|4|1840002078
Niantic|Niantic|IL|Illinois|17115|Macon|39.8541|-89.1653|657|244|shape|FALSE|TRUE|America/Chicago|3|1840012430
Cedar Point|Cedar Point|TX|Texas|48373|Polk|30.7975|-95.0749|656|279|shape|FALSE|TRUE|America/Chicago|3|1840042533
Oak Park|Oak Park|GA|Georgia|13107|Emanuel|32.3822|-82.3153|656|35|shape|FALSE|TRUE|America/New_York|3|1840016962
Lake Seneca|Lake Seneca|OH|Ohio|39171|Williams|41.6695|-84.6516|656|178|shape|FALSE|FALSE|America/New_York|3|1840026278
Throckmorton|Throckmorton|TX|Texas|48447|Throckmorton|33.1820|-99.1797|656|152|shape|FALSE|TRUE|America/Chicago|3|1840022999
Motley|Motley|VA|Virginia|51143|Pittsylvania|37.0657|-79.3474|656|63|shape|FALSE|FALSE|America/New_York|3|1840026887
Golinda|Golinda|TX|Texas|48145|Falls|31.3715|-97.0765|656|63|shape|FALSE|TRUE|America/Chicago|3|1840020841
Elizabeth|Elizabeth|LA|Louisiana|22003|Allen|30.8670|-92.7987|656|153|shape|FALSE|TRUE|America/Chicago|3|1840017167
East Randolph|East Randolph|NY|New York|36009|Cattaraugus|42.1693|-78.9520|656|228|shape|FALSE|FALSE|America/New_York|3|1840004600
Millers Lake|Millers Lake|MI|Michigan|26087|Lapeer|43.1800|-83.3257|656|167|shape|FALSE|FALSE|America/Detroit|3|1840147522
Lytle Creek|Lytle Creek|CA|California|06071|San Bernardino|34.2499|-117.5044|656|42|shape|FALSE|FALSE|America/Los_Angeles|3|1840024932
Masthope|Masthope|PA|Pennsylvania|42103|Pike|41.5155|-75.0257|655|48|shape|FALSE|FALSE|America/New_York|3|1840026312
Kreamer|Kreamer|PA|Pennsylvania|42109|Snyder|40.8004|-76.9707|655|203|shape|FALSE|FALSE|America/New_York|3|1840005366
Rocky Hill|Rocky Hill|NJ|New Jersey|34035|Somerset|40.4001|-74.6405|655|414|shape|FALSE|TRUE|America/New_York|3|1840001055
Penney Farms|Penney Farms|FL|Florida|12019|Clay|29.9807|-81.8108|655|173|shape|FALSE|TRUE|America/New_York|3|1840017207
Modena|Modena|PA|Pennsylvania|42029|Chester|39.9619|-75.8025|655|353.7|shape|FALSE|TRUE|America/New_York|3|1840001430
Hardin|Hardin|MO|Missouri|29177|Ray|39.2676|-93.8313|655|393|shape|FALSE|TRUE|America/Chicago|3|1840007361
Allendale|Allendale|IL|Illinois|17185|Wabash|38.5276|-87.7103|655|404.3|shape|FALSE|TRUE|America/Chicago|3|1840010789
Mohall|Mohall|ND|North Dakota|38075|Renville|48.7661|-101.5169|655|236|shape|FALSE|TRUE|America/Chicago|3|1840000045
Crooked Creek|Crooked Creek|GA|Georgia|13237|Putnam|33.2616|-83.2679|655|78|shape|FALSE|FALSE|America/New_York|3|1840139859
Pultneyville|Pultneyville|NY|New York|36117|Wayne|43.2739|-77.1814|655|107|shape|FALSE|FALSE|America/New_York|3|1840026166
Villa Esperanza|Villa Esperanza|PR|Puerto Rico|72137|Toa Baja|18.4262|-66.2311|655|1490.6|shape|FALSE|FALSE|America/Puerto_Rico|3|1630151541
Queen Valley|Queen Valley|AZ|Arizona|04021|Pinal|33.2831|-111.3049|655|26|shape|FALSE|FALSE|America/Phoenix|3|1840019360
Unionville|Unionville|MI|Michigan|26157|Tuscola|43.6538|-83.4671|654|268|shape|FALSE|TRUE|America/Detroit|3|1840010975
Ellsinore|Ellsinore|MO|Missouri|29035|Carter|36.9328|-90.7477|654|499|shape|FALSE|TRUE|America/Chicago|3|1840008786
New Hebron|New Hebron|MS|Mississippi|28077|Lawrence|31.7332|-89.9833|654|377|shape|FALSE|TRUE|America/Chicago|3|1840017078
Hayes|Hayes|LA|Louisiana|22019|Calcasieu|30.1112|-92.9236|654|90|shape|FALSE|FALSE|America/Chicago|3|1840026021
Rolette|Rolette|ND|North Dakota|38079|Rolette|48.6609|-99.8417|654|250|shape|FALSE|TRUE|America/Chicago|3|1840001850
Dongola|Dongola|IL|Illinois|17181|Union|37.3599|-89.1654|654|232|shape|FALSE|TRUE|America/Chicago|3|1840013008
Peninsula|Peninsula|OH|Ohio|39153|Summit|41.2379|-81.5518|654|57|shape|FALSE|TRUE|America/New_York|3|1840011672
Port Sanilac|Port Sanilac|MI|Michigan|26151|Sanilac|43.4275|-82.5449|654|296|shape|FALSE|TRUE|America/Detroit|3|1840010979
Vici|Vici|OK|Oklahoma|40043|Dewey|36.1488|-99.2994|654|581|shape|FALSE|TRUE|America/Chicago|3|1840022698
Dundee|Dundee|OH|Ohio|39157|Tuscarawas|40.5868|-81.6069|654|324|shape|FALSE|FALSE|America/New_York|3|1840026485
Homecroft|Homecroft|IN|Indiana|18097|Marion|39.6696|-86.1312|654|997.3|shape|FALSE|TRUE|America/Indiana/Indianapolis|3|1840029952
Hagerman|Hagerman|NM|New Mexico|35005|Chaves|33.1146|-104.3284|653|185|shape|FALSE|TRUE|America/Denver|3|1840021934
Damascus|Damascus|VA|Virginia|51191|Washington|36.6326|-81.7891|653|316|shape|FALSE|TRUE|America/New_York|3|1840006530
Holiday Hills|Holiday Hills|IL|Illinois|17111|McHenry|42.2978|-88.2292|653|269|shape|FALSE|TRUE|America/Chicago|3|1840011133
Armour|Armour|SD|South Dakota|46043|Douglas|43.3190|-98.3448|653|266|shape|FALSE|TRUE|America/Chicago|3|1840002861
Cattle Creek|Cattle Creek|CO|Colorado|08045|Garfield|39.4667|-107.2599|653|194|shape|FALSE|FALSE|America/Denver|3|1840024360
Buffalo Lake|Buffalo Lake|MN|Minnesota|27129|Renville|44.7368|-94.6170|653|369|shape|FALSE|TRUE|America/Chicago|3|1840006771
Friendship|Friendship|WI|Wisconsin|55001|Adams|43.9720|-89.8203|653|280|shape|FALSE|TRUE|America/Chicago|3|1840002233
Gettysburg|Gettysburg|OH|Ohio|39037|Darke|40.1156|-84.4964|653|575|shape|FALSE|TRUE|America/New_York|3|1840012249
Salem|Salem|KY|Kentucky|21139|Livingston|37.2653|-88.2410|653|296|shape|FALSE|TRUE|America/Chicago|3|1840015251
White River|White River|SD|South Dakota|46095|Mellette|43.5671|-100.7449|653|484|shape|FALSE|TRUE|America/Chicago|3|1840002630
Bradford|Bradford|AR|Arkansas|05145|White|35.4220|-91.4552|653|290|shape|FALSE|TRUE|America/Chicago|3|1840013440
Somerville|Somerville|AL|Alabama|01103|Morgan|34.4679|-86.7909|653|73|shape|FALSE|TRUE|America/Chicago|4|1840004313
Rocky Ripple|Rocky Ripple|IN|Indiana|18097|Marion|39.8484|-86.1731|653|1566.7|shape|FALSE|TRUE|America/Indiana/Indianapolis|3|1840010573
Cynthiana|Cynthiana|IN|Indiana|18129|Posey|38.1872|-87.7086|653|632|shape|FALSE|TRUE|America/Chicago|3|1840009838
Mathiston|Mathiston|MS|Mississippi|28155|Webster|33.5391|-89.1275|652|100|shape|FALSE|TRUE|America/Chicago|3|1840016817
Goshen|Goshen|OH|Ohio|39025|Clermont|39.2325|-84.1532|652|135|shape|FALSE|FALSE|America/New_York|3|1840034113
Hedrick|Hedrick|IA|Iowa|19107|Keokuk|41.1713|-92.3079|652|161|shape|FALSE|TRUE|America/Chicago|3|1840007109
Peletier|Peletier|NC|North Carolina|37031|Carteret|34.7270|-77.0758|652|69|shape|FALSE|TRUE|America/New_York|3|1840016486
Stockport|Stockport|OH|Ohio|39115|Morgan|39.5489|-81.7944|652|418.1|shape|FALSE|TRUE|America/New_York|3|1840012570
Pangburn|Pangburn|AR|Arkansas|05145|White|35.4261|-91.8394|652|461|shape|FALSE|TRUE|America/Chicago|3|1840014553
Sewickley Heights|Sewickley Heights|PA|Pennsylvania|42003|Allegheny|40.5595|-80.1528|652|34|shape|FALSE|TRUE|America/New_York|3|1840001260
Cushing|Cushing|TX|Texas|48347|Nacogdoches|31.8126|-94.8412|652|183|shape|FALSE|TRUE|America/Chicago|3|1840019535
Linden|Linden|IN|Indiana|18107|Montgomery|40.1890|-86.9023|652|644|shape|FALSE|TRUE|America/Indiana/Indianapolis|3|1840009462
War|War|WV|West Virginia|54047|McDowell|37.3040|-81.6802|652|282|shape|FALSE|TRUE|America/New_York|3|1840006421
Taycheedah|Taycheedah|WI|Wisconsin|55039|Fond du Lac|43.8118|-88.3916|652|321|shape|FALSE|FALSE|America/Chicago|3|1840024010
Red Mesa|Red Mesa|AZ|Arizona|04001|Apache|36.9664|-109.3828|652|19|shape|FALSE|FALSE|America/Denver|3|1840018998
Klemme|Klemme|IA|Iowa|19081|Hancock|43.0097|-93.6013|652|503|shape|FALSE|TRUE|America/Chicago|3|1840007989
Saltillo|Saltillo|TN|Tennessee|47071|Hardin|35.3821|-88.2396|652|86|shape|FALSE|TRUE|America/Chicago|3|1840017863
Niederwald|Niederwald|TX|Texas|48209|Hays|30.0038|-97.7532|652|68|shape|FALSE|TRUE|America/Chicago|3|1840020906
Iron River|Iron River|WI|Wisconsin|55007|Bayfield|46.5671|-91.4069|652|40|shape|FALSE|FALSE|America/Chicago|3|1840026071
Lattimore|Lattimore|NC|North Carolina|37045|Cleveland|35.3153|-81.6602|652|245|shape|FALSE|TRUE|America/New_York|3|1840016330
Concorde Hills|Concorde Hills|OH|Ohio|39061|Hamilton|39.2109|-84.3572|652|368.6|shape|FALSE|TRUE|America/New_York|3|1840042327
Lanesboro|Lanesboro|PA|Pennsylvania|42115|Susquehanna|41.9624|-75.5826|652|96|shape|FALSE|TRUE|America/New_York|3|1840003323
Leeds|Leeds|UT|Utah|49053|Washington|37.2373|-113.3471|652|39|shape|FALSE|TRUE|America/Denver|3|1840021564
Port Matilda|Port Matilda|PA|Pennsylvania|42027|Centre|40.8002|-78.0524|652|447|shape|FALSE|TRUE|America/New_York|3|1840000828
Gibraltar|Gibraltar|PA|Pennsylvania|42011|Berks|40.2809|-75.8609|652|214|shape|FALSE|FALSE|America/New_York|3|1840034984
Retreat|Retreat|TX|Texas|48349|Navarro|32.0507|-96.4787|651|50|shape|FALSE|TRUE|America/Chicago|3|1840022119
Sligo|Sligo|PA|Pennsylvania|42031|Clarion|41.1081|-79.4964|651|178|shape|FALSE|TRUE|America/New_York|3|1840003463
Rollingstone|Rollingstone|MN|Minnesota|27169|Winona|44.0993|-91.8187|651|577|shape|FALSE|TRUE|America/Chicago|3|1840008990
West Bend|West Bend|IA|Iowa|19147|Palo Alto|42.9600|-94.4457|651|286|shape|FALSE|TRUE|America/Chicago|3|1840010056
Esperanza|Esperanza|PR|Puerto Rico|72147|Vieques|18.1021|-65.4798|651|197|shape|FALSE|FALSE|America/Puerto_Rico|3|1630023731
Poplar|Poplar|WI|Wisconsin|55031|Douglas|46.5828|-91.7836|651|21|shape|FALSE|TRUE|America/Chicago|3|1840003912
Barnes Lake|Barnes Lake|MI|Michigan|26087|Lapeer|43.1792|-83.3002|651|162|shape|FALSE|FALSE|America/Detroit|3|1840148573
Sunset|Sunset|TX|Texas|48337|Montague|33.4480|-97.7663|651|50|shape|FALSE|FALSE|America/Chicago|3|1840025869
Gilbert|Gilbert|SC|South Carolina|45063|Lexington|33.9245|-81.3928|650|92|shape|FALSE|TRUE|America/New_York|3|1840016727
Naches|Naches|WA|Washington|53077|Yakima|46.7258|-120.6909|650|288|shape|FALSE|TRUE|America/Los_Angeles|3|1840022318
Grand Ridge|Grand Ridge|IL|Illinois|17099|LaSalle|41.2361|-88.8310|650|543|shape|FALSE|TRUE|America/Chicago|3|1840011530
Hatley|Hatley|MS|Mississippi|28095|Monroe|33.9773|-88.4184|650|183|shape|FALSE|TRUE|America/Chicago|3|1840016750
Mallow|Mallow|VA|Virginia|51005|Alleghany|37.7676|-79.9702|650|379|shape|FALSE|FALSE|America/New_York|3|1840117168
Milroy|Milroy|IN|Indiana|18139|Rush|39.4982|-85.4675|650|378|shape|FALSE|FALSE|America/Indiana/Indianapolis|3|1840026614
Hungry Horse|Hungry Horse|MT|Montana|30029|Flathead|48.3843|-114.0652|650|175|shape|FALSE|FALSE|America/Denver|3|1840017299
Gary|Gary|WV|West Virginia|54047|McDowell|37.3619|-81.5415|650|298|shape|FALSE|TRUE|America/New_York|3|1840006419
Bardwell|Bardwell|TX|Texas|48139|Ellis|32.2671|-96.6955|650|759.8|shape|FALSE|TRUE|America/Chicago|3|1840019470
Rockleigh|Rockleigh|NJ|New Jersey|34003|Bergen|41.0026|-73.9327|650|250|shape|FALSE|TRUE|America/New_York|3|1840000901
Kellogg|Kellogg|IA|Iowa|19099|Jasper|41.7181|-92.9072|649|370.6|shape|FALSE|TRUE|America/Chicago|3|1840008175
Sandy Hook|Sandy Hook|KY|Kentucky|21063|Elliott|38.0929|-83.1240|649|255|shape|FALSE|TRUE|America/New_York|3|1840015210
Bucklin|Bucklin|KS|Kansas|20057|Ford|37.5488|-99.6343|649|435|shape|FALSE|TRUE|America/Chicago|3|1840007562
Brownsboro Farm|Brownsboro Farm|KY|Kentucky|21111|Jefferson|38.3040|-85.5946|649|1186.8|shape|FALSE|TRUE|America/New_York|3|1840030395
Port Leyden|Port Leyden|NY|New York|36049|Lewis|43.5838|-75.3412|649|406|shape|FALSE|TRUE|America/New_York|3|1840004136
Sankertown|Sankertown|PA|Pennsylvania|42021|Cambria|40.4714|-78.5919|649|635.2|shape|FALSE|TRUE|America/New_York|3|1840001123
Gibsland|Gibsland|LA|Louisiana|22013|Bienville|32.5395|-93.0541|649|95|shape|FALSE|TRUE|America/Chicago|3|1840016985
Minden|Minden|IA|Iowa|19155|Pottawattamie|41.4700|-95.5429|648|441|shape|FALSE|TRUE|America/Chicago|3|1840008233
Howells|Howells|NE|Nebraska|31037|Colfax|41.7241|-97.0043|648|434|shape|FALSE|TRUE|America/Chicago|3|1840011447
North Freedom|North Freedom|WI|Wisconsin|55111|Sauk|43.4590|-89.8603|648|298|shape|FALSE|TRUE|America/Chicago|3|1840002724
Waldron|Waldron|IN|Indiana|18145|Shelby|39.4535|-85.6630|648|199|shape|FALSE|FALSE|America/Indiana/Indianapolis|3|1840026630
Cascade|Cascade|MT|Montana|30013|Cascade|47.2769|-111.7026|648|381|shape|FALSE|TRUE|America/Denver|3|1840022302
Edgerton|Edgerton|MO|Missouri|29165|Platte|39.5023|-94.6296|648|221|shape|FALSE|TRUE|America/Chicago|3|1840008483
Rosalia|Rosalia|WA|Washington|53075|Whitman|47.2363|-117.3764|648|398|shape|FALSE|TRUE|America/Los_Angeles|3|1840021138
Fort Jesup|Fort Jesup|LA|Louisiana|22085|Sabine|31.6118|-93.4077|648|58|shape|FALSE|FALSE|America/Chicago|3|1840025941
Rolfe|Rolfe|IA|Iowa|19151|Pocahontas|42.8129|-94.5313|648|237|shape|FALSE|TRUE|America/Chicago|3|1840000398
Glen White|Glen White|WV|West Virginia|54081|Raleigh|37.7300|-81.2797|648|494|shape|FALSE|FALSE|America/New_York|3|1840025710
Rodey|Rodey|NM|New Mexico|35013|Doña Ana|32.6538|-107.1358|648|447|shape|FALSE|FALSE|America/Denver|3|1840025088
Peñasco|Penasco|NM|New Mexico|35055|Taos|36.1703|-105.6908|648|205|shape|FALSE|FALSE|America/Denver|3|1840019009
Pine Harbor|Pine Harbor|TX|Texas|48315|Marion|32.7716|-94.4992|648|75|shape|FALSE|TRUE|America/Chicago|4|1840042627
Noble|Noble|IL|Illinois|17159|Richland|38.6974|-88.2232|647|245|shape|FALSE|TRUE|America/Chicago|3|1840012833
Malta|Malta|OH|Ohio|39115|Morgan|39.6515|-81.8640|647|309.5|shape|FALSE|TRUE|America/New_York|3|1840012568
Palmyra|Palmyra|IL|Illinois|17117|Macoupin|39.4345|-89.9959|647|250|shape|FALSE|TRUE|America/Chicago|3|1840012658
Bell Buckle|Bell Buckle|TN|Tennessee|47003|Bedford|35.5908|-86.3538|647|491|shape|FALSE|TRUE|America/Chicago|3|1840015411
Holiday Lakes|Holiday Lakes|OH|Ohio|39077|Huron|41.0923|-82.7292|647|144|shape|FALSE|TRUE|America/New_York|4|1840042971
Oakville|Oakville|WA|Washington|53027|Grays Harbor|46.8403|-123.2337|647|452|shape|FALSE|TRUE|America/Los_Angeles|3|1840019848
Calypso|Calypso|NC|North Carolina|37061|Duplin|35.1545|-78.1046|647|249|shape|FALSE|TRUE|America/New_York|3|1840015486
Rome|Rome|WI|Wisconsin|55055|Jefferson|42.9823|-88.6389|647|67|shape|FALSE|FALSE|America/Chicago|3|1840004352
Leonardville|Leonardville|KS|Kansas|20161|Riley|39.3642|-96.8596|647|471.2|shape|FALSE|TRUE|America/Chicago|3|1840008480
McIntosh|McIntosh|MN|Minnesota|27119|Polk|47.6369|-95.8864|647|250|shape|FALSE|TRUE|America/Chicago|3|1840007705
Burlington|Burlington|IN|Indiana|18015|Carroll|40.4819|-86.3946|647|408|shape|FALSE|TRUE|America/Indiana/Indianapolis|3|1840009406
Gauley Bridge|Gauley Bridge|WV|West Virginia|54019|Fayette|38.1681|-81.2039|646|157|shape|FALSE|TRUE|America/New_York|3|1840006294
Lilesville|Lilesville|NC|North Carolina|37007|Anson|34.9675|-79.9845|646|251|shape|FALSE|TRUE|America/New_York|3|1840016447
Florien|Florien|LA|Louisiana|22085|Sabine|31.4480|-93.4583|646|111|shape|FALSE|TRUE|America/Chicago|3|1840018159
Oak Grove|Oak Grove|TX|Texas|48257|Kaufman|32.5327|-96.3186|646|127|shape|FALSE|TRUE|America/Chicago|3|1840023035
McIntyre|McIntyre|GA|Georgia|13319|Wilkinson|32.8466|-83.2011|646|48|shape|FALSE|TRUE|America/New_York|3|1840016941
Wright City|Wright City|OK|Oklahoma|40089|McCurtain|34.0649|-95.0074|646|277|shape|FALSE|TRUE|America/Chicago|3|1840022855
Burnsville|Burnsville|WV|West Virginia|54007|Braxton|38.8579|-80.6538|645|235|shape|FALSE|TRUE|America/New_York|3|1840006115
Hookerton|Hookerton|NC|North Carolina|37079|Greene|35.4228|-77.5893|645|66.5|shape|FALSE|TRUE|America/New_York|3|1840016313
Ettrick|Ettrick|WI|Wisconsin|55121|Trempealeau|44.1695|-91.2651|645|336|shape|FALSE|TRUE|America/Chicago|3|1840002390
Coalville|Coalville|IA|Iowa|19187|Webster|42.4407|-94.1192|645|114|shape|FALSE|FALSE|America/Chicago|3|1840004539
Inyokern|Inyokern|CA|California|06029|Kern|35.6546|-117.8213|645|22|shape|FALSE|FALSE|America/Los_Angeles|3|1840017820
Saxton|Saxton|PA|Pennsylvania|42009|Bedford|40.2127|-78.2470|644|611|shape|FALSE|TRUE|America/New_York|3|1840001406
Felton|Felton|PA|Pennsylvania|42133|York|39.8570|-76.5611|644|394|shape|FALSE|TRUE|America/New_York|3|1840001445
Albion|Albion|IA|Iowa|19127|Marshall|42.1125|-92.9886|644|412|shape|FALSE|TRUE|America/Chicago|3|1840006997
Farmington|Farmington|IA|Iowa|19177|Van Buren|40.6389|-91.7392|644|537|shape|FALSE|TRUE|America/Chicago|3|1840008303
Kingston|Kingston|GA|Georgia|13015|Bartow|34.2319|-84.9444|644|197|shape|FALSE|TRUE|America/New_York|3|1840014702
Merrillan|Merrillan|WI|Wisconsin|55053|Jackson|44.4488|-90.8340|644|185|shape|FALSE|TRUE|America/Chicago|3|1840002399
Millville|Millville|OH|Ohio|39017|Butler|39.3925|-84.6528|644|426|shape|FALSE|TRUE|America/New_York|3|1840012607
Mount Auburn|Mount Auburn|IL|Illinois|17021|Christian|39.7649|-89.2608|644|249|shape|FALSE|TRUE|America/Chicago|3|1840012547
Worthington|Worthington|PA|Pennsylvania|42005|Armstrong|40.8380|-79.6351|644|361|shape|FALSE|TRUE|America/New_York|3|1840000881
Halaula|Halaula|HI|Hawaii|15001|Hawaii|20.2233|-155.7739|644|56|shape|FALSE|FALSE|Pacific/Honolulu|3|1840029473
Biwabik|Biwabik|MN|Minnesota|27137|St. Louis|47.5550|-92.3234|643|28|shape|FALSE|TRUE|America/Chicago|3|1840006592
Park City|Park City|KY|Kentucky|21009|Barren|37.0934|-86.0486|643|169|shape|FALSE|TRUE|America/Chicago|3|1840014395
Mendon|Mendon|OH|Ohio|39107|Mercer|40.6733|-84.5174|643|446|shape|FALSE|TRUE|America/New_York|3|1840012004
Acacia Villas|Acacia Villas|FL|Florida|12099|Palm Beach|26.6457|-80.1104|643|2257.1|shape|FALSE|TRUE|America/New_York|2|1840042854
Fielding|Fielding|UT|Utah|49003|Box Elder|41.8127|-112.1173|643|486|shape|FALSE|TRUE|America/Denver|3|1840021332
Mountain Lakes|Mountain Lakes|NH|New Hampshire|33009|Grafton|44.1205|-71.9580|643|70|shape|FALSE|FALSE|America/New_York|3|1840026129
Monroe|Monroe|OR|Oregon|41003|Benton|44.3168|-123.2989|643|491|shape|FALSE|TRUE|America/Los_Angeles|3|1840019997
Tower Hill|Tower Hill|IL|Illinois|17173|Shelby|39.3868|-88.9592|643|247|shape|FALSE|TRUE|America/Chicago|3|1840012593
Greenleaf|Greenleaf|WI|Wisconsin|55009|Brown|44.3170|-88.0972|643|240|shape|FALSE|FALSE|America/Chicago|3|1840025357
Santa Rosa|Santa Rosa|AZ|Arizona|04019|Pima|32.3325|-112.0464|643|37|shape|FALSE|FALSE|America/Phoenix|3|1840019484
Norphlet|Norphlet|AR|Arkansas|05139|Union|33.3198|-92.6619|642|121|shape|FALSE|TRUE|America/Chicago|3|1840014842
Jacksons' Gap|Jacksons' Gap|AL|Alabama|01123|Tallapoosa|32.8831|-85.8151|642|29|shape|FALSE|TRUE|America/Chicago|4|1840025222
Ridgeway|Ridgeway|WI|Wisconsin|55049|Iowa|42.9986|-89.9930|642|198|shape|FALSE|TRUE|America/Chicago|3|1840002963
Hull|Hull|TX|Texas|48291|Liberty|30.1464|-94.6422|642|124|shape|FALSE|FALSE|America/Chicago|3|1840026019
Remington|Remington|VA|Virginia|51061|Fauquier|38.5346|-77.8083|642|545.3|shape|FALSE|TRUE|America/New_York|3|1840006056
Falcon Heights|Falcon Heights|OR|Oregon|41035|Klamath|42.1314|-121.7566|642|593|shape|FALSE|FALSE|America/Los_Angeles|3|1840098166
Benns Church|Benns Church|VA|Virginia|51093|Isle of Wight|36.9370|-76.5842|642|60|shape|FALSE|FALSE|America/New_York|3|1840024806
East View|East View|WV|West Virginia|54033|Harrison|39.2691|-80.3051|642|243|shape|FALSE|FALSE|America/New_York|3|1840122329
La Mesa|La Mesa|NM|New Mexico|35013|Doña Ana|32.1244|-106.7090|642|104|shape|FALSE|FALSE|America/Denver|3|1840025084
Arley|Arley|AL|Alabama|01133|Winston|34.0885|-87.2075|642|65|shape|FALSE|TRUE|America/Chicago|4|1840006641
Scotland|Scotland|TX|Texas|48009|Archer|33.6499|-98.4677|642|31|shape|FALSE|TRUE|America/Chicago|3|1840021977
Iberia|Iberia|MO|Missouri|29131|Miller|38.0887|-92.2961|642|281|shape|FALSE|TRUE|America/Chicago|3|1840007515
Cherry Grove|Cherry Grove|WA|Washington|53011|Clark|45.8022|-122.5767|642|106|shape|FALSE|FALSE|America/Los_Angeles|3|1840037538
Zephyr Cove|Zephyr Cove|NV|Nevada|32005|Douglas|39.0082|-119.9307|642|116|shape|FALSE|FALSE|America/Los_Angeles|3|1840033820
Star Prairie|Star Prairie|WI|Wisconsin|55109|St. Croix|45.1975|-92.5321|641|115|shape|FALSE|TRUE|America/Chicago|3|1840002130
Deer Creek|Deer Creek|IL|Illinois|17179|Tazewell|40.6293|-89.3313|641|462|shape|FALSE|TRUE|America/Chicago|3|1840011988
Knapp|Knapp|WI|Wisconsin|55033|Dunn|44.9514|-92.0769|641|157|shape|FALSE|TRUE|America/Chicago|3|1840002142
Tangipahoa|Tangipahoa|LA|Louisiana|22105|Tangipahoa|30.8758|-90.5138|641|246|shape|FALSE|TRUE|America/Chicago|3|1840018209
Eagle Bend|Eagle Bend|MN|Minnesota|27153|Todd|46.1643|-95.0341|641|183|shape|FALSE|TRUE|America/Chicago|3|1840007754
Valley Acres|Valley Acres|CA|California|06029|Kern|35.2087|-119.4106|641|60|shape|FALSE|FALSE|America/Los_Angeles|3|1840019143
Velma|Velma|OK|Oklahoma|40137|Stephens|34.4546|-97.6620|641|182|shape|FALSE|TRUE|America/Chicago|3|1840022830
Waverly|Waverly|KS|Kansas|20031|Coffey|38.3962|-95.6048|641|337|shape|FALSE|TRUE|America/Chicago|3|1840010808
Unity|Unity|SC|South Carolina|45057|Lancaster|34.8024|-80.6936|641|117|shape|FALSE|FALSE|America/New_York|3|1840106482
Whitesville|Whitesville|KY|Kentucky|21059|Daviess|37.6830|-86.8701|640|573|shape|FALSE|TRUE|America/Chicago|3|1840015223
Fawn Lake Forest|Fawn Lake Forest|PA|Pennsylvania|42103|Pike|41.5158|-75.0548|640|96|shape|FALSE|FALSE|America/New_York|3|1840035394
Clarks Grove|Clarks Grove|MN|Minnesota|27047|Freeborn|43.7617|-93.3286|640|412|shape|FALSE|TRUE|America/Chicago|3|1840006822
New London|New London|NC|North Carolina|37167|Stanly|35.4348|-80.2198|640|125|shape|FALSE|TRUE|America/New_York|3|1840016366
Moulton|Moulton|IA|Iowa|19007|Appanoose|40.6856|-92.6763|640|243|shape|FALSE|TRUE|America/Chicago|3|1840008319
Maplesville|Maplesville|AL|Alabama|01021|Chilton|32.7867|-86.8783|640|75|shape|FALSE|TRUE|America/Chicago|3|1840016919
Fordsville|Fordsville|KY|Kentucky|21183|Ohio|37.6357|-86.7171|640|551|shape|FALSE|TRUE|America/Chicago|3|1840013230
Garza-Salinas II|Garza-Salinas II|TX|Texas|48427|Starr|26.3518|-98.7595|640|952.5|shape|FALSE|TRUE|America/Chicago|3|1840040840
Coffeen|Coffeen|IL|Illinois|17135|Montgomery|39.0883|-89.3898|640|212|shape|FALSE|TRUE|America/Chicago|3|1840007363
Nocona Hills|Nocona Hills|TX|Texas|48337|Montague|33.8524|-97.6435|640|47|shape|FALSE|FALSE|America/Chicago|3|1840025868
West Point|West Point|CA|California|06009|Calaveras|38.4060|-120.5365|640|83|shape|FALSE|FALSE|America/Los_Angeles|3|1840018872
Hartville|Hartville|MO|Missouri|29229|Wright|37.2502|-92.5120|640|379|shape|FALSE|TRUE|America/Chicago|3|1840007603
Weir|Weir|MS|Mississippi|28019|Choctaw|33.2635|-89.2905|640|235|shape|FALSE|TRUE|America/Chicago|3|1840016857
Garwin|Garwin|IA|Iowa|19171|Tama|42.0935|-92.6791|640|245|shape|FALSE|TRUE|America/Chicago|3|1840008103
Mocanaqua|Mocanaqua|PA|Pennsylvania|42079|Luzerne|41.1407|-76.1367|640|498|shape|FALSE|FALSE|America/New_York|3|1840026331
Golden City|Golden City|MO|Missouri|29011|Barton|37.3931|-94.0942|639|238|shape|FALSE|TRUE|America/Chicago|3|1840008725
New Market|New Market|IN|Indiana|18107|Montgomery|39.9527|-86.9214|639|678.4|shape|FALSE|TRUE|America/Indiana/Indianapolis|3|1840009463
Hilltop|Hilltop|OH|Ohio|39155|Trumbull|41.1627|-80.7408|639|328|shape|FALSE|FALSE|America/New_York|3|1840034372
Heath Springs|Heath Springs|SC|South Carolina|45057|Lancaster|34.5933|-80.6750|639|151|shape|FALSE|TRUE|America/New_York|3|1840015505
Swea City|Swea City|IA|Iowa|19109|Kossuth|43.3834|-94.3104|639|323|shape|FALSE|TRUE|America/Chicago|3|1840009022
Apple Canyon Lake|Apple Canyon Lake|IL|Illinois|17085|Jo Daviess|42.4302|-90.1642|639|66|shape|FALSE|FALSE|America/Chicago|3|1840026205
Sicily Island|Sicily Island|LA|Louisiana|22025|Catahoula|31.8493|-91.6599|639|429|shape|FALSE|TRUE|America/Chicago|3|1840018154
Battle Lake|Battle Lake|MN|Minnesota|27111|Otter Tail|46.2850|-95.7186|639|171|shape|FALSE|TRUE|America/Chicago|3|1840006652
Pe Ell|Pe Ell|WA|Washington|53041|Lewis|46.5713|-123.2982|639|417|shape|FALSE|TRUE|America/Los_Angeles|3|1840022321
O'Brien|O'Brien|OR|Oregon|41033|Josephine|42.0702|-123.7077|639|47|shape|FALSE|FALSE|America/Los_Angeles|3|1840025486
Elgin|Elgin|IA|Iowa|19065|Fayette|42.9553|-91.6354|638|363|shape|FALSE|TRUE|America/Chicago|3|1840008005
Lake Benton|Lake Benton|MN|Minnesota|27081|Lincoln|44.2642|-96.2891|638|76|shape|FALSE|TRUE|America/Chicago|3|1840007875
Alton|Alton|MO|Missouri|29149|Oregon|36.6901|-91.3947|638|157|shape|FALSE|TRUE|America/Chicago|3|1840007655
Voladoras Comunidad|Voladoras Comunidad|PR|Puerto Rico|72099|Moca|18.3785|-67.0859|638|1152.5|shape|FALSE|FALSE|America/Puerto_Rico|3|1630143406
Solis|Solis|TX|Texas|48061|Cameron|26.1708|-97.8440|638|147|shape|FALSE|FALSE|America/Chicago|3|1840037077
Wolsey|Wolsey|SD|South Dakota|46005|Beadle|44.4105|-98.4738|638|108|shape|FALSE|TRUE|America/Chicago|3|1840002369
Oretta|Oretta|LA|Louisiana|22011|Beauregard|30.5289|-93.4391|638|112|shape|FALSE|FALSE|America/Chicago|3|1840025998
Shippenville|Shippenville|PA|Pennsylvania|42031|Clarion|41.2510|-79.4626|638|635|shape|FALSE|TRUE|America/New_York|3|1840003462
Midway|Midway|NM|New Mexico|35005|Chaves|33.2958|-104.4518|638|99|shape|FALSE|FALSE|America/Denver|3|1840026984
Metamora|Metamora|OH|Ohio|39051|Fulton|41.7113|-83.9056|638|301|shape|FALSE|TRUE|America/New_York|3|1840011514
Tijeras|Tijeras|NM|New Mexico|35001|Bernalillo|35.0884|-106.3761|638|217|shape|FALSE|TRUE|America/Denver|3|1840022796
Satsop|Satsop|WA|Washington|53027|Grays Harbor|47.0223|-123.4737|638|35|shape|FALSE|FALSE|America/Los_Angeles|3|1840018445
Clarissa|Clarissa|MN|Minnesota|27153|Todd|46.1284|-94.9490|637|242|shape|FALSE|TRUE|America/Chicago|3|1840006665
Neosho|Neosho|WI|Wisconsin|55027|Dodge|43.3101|-88.5192|637|467|shape|FALSE|TRUE|America/Chicago|3|1840002743
Capon Bridge|Capon Bridge|WV|West Virginia|54027|Hampshire|39.3000|-78.4341|637|347|shape|FALSE|TRUE|America/New_York|3|1840005757
Eldred|Eldred|PA|Pennsylvania|42083|McKean|41.9563|-78.3817|637|280|shape|FALSE|TRUE|America/New_York|3|1840000524
Milano|Milano|TX|Texas|48331|Milam|30.7083|-96.8593|637|134|shape|FALSE|TRUE|America/Chicago|3|1840020860
Big Sandy|Big Sandy|MT|Montana|30015|Chouteau|48.1785|-110.1134|637|516|shape|FALSE|TRUE|America/Denver|3|1840019784
Bunker Hill|Bunker Hill|IN|Indiana|18103|Miami|40.6601|-86.1015|637|632|shape|FALSE|TRUE|America/Indiana/Indianapolis|3|1840009364
Sunlit Hills|Sunlit Hills|NM|New Mexico|35049|Santa Fe|35.5957|-105.9210|637|65|shape|FALSE|FALSE|America/Denver|3|1840152651
Hayden Lake|Hayden Lake|ID|Idaho|16055|Kootenai|47.7639|-116.7559|636|401|shape|FALSE|TRUE|America/Los_Angeles|3|1840019809
Clearbrook|Clearbrook|MN|Minnesota|27029|Clearwater|47.6962|-95.4293|636|500|shape|FALSE|TRUE|America/Chicago|3|1840006607
Binger|Binger|OK|Oklahoma|40015|Caddo|35.3097|-98.3430|636|316|shape|FALSE|TRUE|America/Chicago|3|1840020435
Happy|Happy|TX|Texas|48437|Swisher|34.7416|-101.8572|636|231|shape|FALSE|TRUE|America/Chicago|3|1840021881
Bergholz|Bergholz|OH|Ohio|39081|Jefferson|40.5208|-80.8851|636|435|shape|FALSE|TRUE|America/New_York|3|1840012117
Joppa|Joppa|AL|Alabama|01043|Cullman|34.2982|-86.5506|636|126|shape|FALSE|FALSE|America/Chicago|3|1840025862
Buffalo|Buffalo|OH|Ohio|39059|Guernsey|39.9168|-81.5205|636|501|shape|FALSE|FALSE|America/New_York|3|1840026543
Kanosh|Kanosh|UT|Utah|49027|Millard|38.8014|-112.4374|636|318|shape|FALSE|TRUE|America/Denver|3|1840021458
Wheatland|Wheatland|MT|Montana|30007|Broadwater|45.9580|-111.5781|636|3|shape|FALSE|TRUE|America/Denver|4|1840039764
Pink Hill|Pink Hill|NC|North Carolina|37107|Lenoir|35.0562|-77.7436|636|528|shape|FALSE|TRUE|America/New_York|3|1840016390
Polonia|Polonia|WI|Wisconsin|55097|Portage|44.5756|-89.4118|636|73|shape|FALSE|FALSE|America/Chicago|3|1840025355
Matthews|Matthews|MO|Missouri|29143|New Madrid|36.7584|-89.5688|635|125|shape|FALSE|TRUE|America/Chicago|3|1840008802
Skokomish|Skokomish|WA|Washington|53045|Mason|47.3298|-123.1573|635|36|shape|FALSE|FALSE|America/Los_Angeles|3|1840018433
Ida|Ida|MI|Michigan|26115|Monroe|41.9063|-83.5719|635|99|shape|FALSE|FALSE|America/Detroit|3|1840031627
Foxfield|Foxfield|CO|Colorado|08005|Arapahoe|39.5881|-104.7857|635|185|shape|FALSE|TRUE|America/Denver|3|1840021442
Fincastle|Fincastle|KY|Kentucky|21111|Jefferson|38.3081|-85.5415|635|1874.8|shape|FALSE|TRUE|America/New_York|3|1840013201
Hewlett Neck|Hewlett Neck|NY|New York|36059|Nassau|40.6246|-73.6981|635|309.7|shape|FALSE|TRUE|America/New_York|3|1840005296
Parkway|Parkway|MO|Missouri|29071|Franklin|38.3361|-90.9712|635|641.4|shape|FALSE|TRUE|America/Chicago|3|1840012863
New Lothrop|New Lothrop|MI|Michigan|26155|Shiawassee|43.1168|-83.9693|635|283|shape|FALSE|TRUE|America/Detroit|3|1840011014
Patton Village|Patton Village|CA|California|06035|Lassen|40.1407|-120.1782|635|70|shape|FALSE|FALSE|America/Los_Angeles|3|1840028300
Hill Country Village|Hill Country Village|TX|Texas|48029|Bexar|29.5831|-98.4893|635|111|shape|FALSE|TRUE|America/Chicago|3|1840020958
New Florence|New Florence|PA|Pennsylvania|42129|Westmoreland|40.3790|-79.0751|635|491.9|shape|FALSE|TRUE|America/New_York|3|1840001150
Ririe|Ririe|ID|Idaho|16051|Jefferson|43.6323|-111.7716|634|470|shape|FALSE|TRUE|America/Boise|3|1840020021
Morningside|Morningside|NM|New Mexico|35015|Eddy|32.8610|-104.3971|634|438.9|shape|FALSE|TRUE|America/Denver|3|1840040157
Bishopville|Bishopville|MD|Maryland|24047|Worcester|38.4413|-75.2092|634|85|shape|FALSE|FALSE|America/New_York|3|1840026753
Vernon|Vernon|FL|Florida|12133|Washington|30.6197|-85.7062|634|51|shape|FALSE|TRUE|America/Chicago|3|1840015906
Altona|Altona|IL|Illinois|17095|Knox|41.1150|-90.1648|634|260|shape|FALSE|TRUE|America/Chicago|3|1840010319
Gwynn|Gwynn|VA|Virginia|51115|Mathews|37.4984|-76.2883|634|104|shape|FALSE|FALSE|America/New_York|3|1840026848
Penn|Penn|PA|Pennsylvania|42129|Westmoreland|40.3293|-79.6420|634|585.6|shape|FALSE|TRUE|America/New_York|3|1840001156
Doon|Doon|IA|Iowa|19119|Lyon|43.2790|-96.2329|634|348|shape|FALSE|TRUE|America/Chicago|3|1840006858
Onida|Onida|SD|South Dakota|46119|Sully|44.7049|-100.0675|634|364|shape|FALSE|TRUE|America/Chicago|3|1840000299
Valley Bend|Valley Bend|WV|West Virginia|54083|Randolph|38.7694|-79.9280|634|173|shape|FALSE|FALSE|America/New_York|3|1840025635
Toomsboro|Toomsboro|GA|Georgia|13319|Wilkinson|32.8225|-83.0826|634|131|shape|FALSE|TRUE|America/New_York|3|1840015774
Pleasant View|Pleasant View|PA|Pennsylvania|42005|Armstrong|40.6090|-79.5759|634|425|shape|FALSE|FALSE|America/New_York|3|1840035156
Fuller Acres|Fuller Acres|CA|California|06029|Kern|35.3023|-118.9143|634|324|shape|FALSE|FALSE|America/Los_Angeles|3|1840026944
Pleasant Ridge|Pleasant Ridge|KY|Kentucky|21059|Daviess|37.5939|-86.9935|634|69|shape|FALSE|FALSE|America/Chicago|3|1840060477
Joliet|Joliet|MT|Montana|30009|Carbon|45.4846|-108.9723|633|403.0|shape|FALSE|TRUE|America/Denver|3|1840021216
Addison|Addison|MI|Michigan|26091|Lenawee|41.9862|-84.3491|633|255|shape|FALSE|TRUE|America/Detroit|3|1840010154
Weaubleau|Weaubleau|MO|Missouri|29085|Hickory|37.8915|-93.5404|633|282|shape|FALSE|TRUE|America/Chicago|3|1840010839
Betsy Layne|Betsy Layne|KY|Kentucky|21071|Floyd|37.5541|-82.6263|633|135|shape|FALSE|FALSE|America/New_York|3|1840026819
Schram City|Schram City|IL|Illinois|17135|Montgomery|39.1631|-89.4609|633|362|shape|FALSE|TRUE|America/Chicago|3|1840012644
Haysi|Haysi|VA|Virginia|51051|Dickenson|37.2151|-82.2931|633|66|shape|FALSE|TRUE|America/New_York|3|1840006457
Josephville|Josephville|MO|Missouri|29183|St. Charles|38.8293|-90.7869|632|93|shape|FALSE|TRUE|America/Chicago|3|1840012808
Meadow View Addition|Meadow View Addition|SD|South Dakota|46099|Minnehaha|43.6233|-96.7023|632|225|shape|FALSE|FALSE|America/Chicago|3|1840024016
Evansville|Evansville|MN|Minnesota|27041|Douglas|46.0062|-95.6869|632|311|shape|FALSE|TRUE|America/Chicago|3|1840007768
Wellington|Wellington|MO|Missouri|29107|Lafayette|39.1383|-93.9861|632|223|shape|FALSE|TRUE|America/Chicago|3|1840010679
Stannards|Stannards|NY|New York|36003|Allegany|42.0741|-77.9123|632|87|shape|FALSE|FALSE|America/New_York|3|1840004605
Walkerville|Walkerville|MT|Montana|30093|Silver Bow|46.0366|-112.5396|632|109|shape|FALSE|TRUE|America/Denver|3|1840022331
James Town|James Town|WY|Wyoming|56037|Sweetwater|41.5648|-109.5383|632|76|shape|FALSE|FALSE|America/Denver|3|1840017466
Burden|Burden|KS|Kansas|20035|Cowley|37.3151|-96.7554|632|471|shape|FALSE|TRUE|America/Chicago|3|1840007604
Weston|Weston|CT|Connecticut|09001|Fairfield|41.2033|-73.3788|632|162|shape|FALSE|FALSE|America/New_York|3|1840153090
Glenville|Glenville|MN|Minnesota|27047|Freeborn|43.5734|-93.2809|631|231|shape|FALSE|TRUE|America/Chicago|3|1840007932
Corder|Corder|MO|Missouri|29107|Lafayette|39.0992|-93.6390|631|214.4|shape|FALSE|TRUE|America/Chicago|3|1840007386
Lone Oak|Lone Oak|TX|Texas|48231|Hunt|32.9961|-95.9406|631|219|shape|FALSE|TRUE|America/Chicago|3|1840020651
Dearing|Dearing|GA|Georgia|13189|McDuffie|33.4149|-82.3852|631|298|shape|FALSE|TRUE|America/New_York|3|1840016837
Vanderbilt|Vanderbilt|TX|Texas|48239|Jackson|28.8208|-96.6097|631|127|shape|FALSE|FALSE|America/Chicago|3|1840019678
Goldfield|Goldfield|IA|Iowa|19197|Wright|42.7356|-93.9179|631|207|shape|FALSE|TRUE|America/Chicago|3|1840008034
Fort Cobb|Fort Cobb|OK|Oklahoma|40015|Caddo|35.1042|-98.4416|631|342|shape|FALSE|TRUE|America/Chicago|3|1840021766
Britton|Britton|MI|Michigan|26091|Lenawee|41.9877|-83.8304|631|307|shape|FALSE|TRUE|America/Detroit|3|1840010151
Lake Park|Lake Park|MN|Minnesota|27005|Becker|46.8839|-96.0989|631|246|shape|FALSE|TRUE|America/Chicago|3|1840007727
Auburn|Auburn|WY|Wyoming|56023|Lincoln|42.7969|-111.0216|631|66|shape|FALSE|FALSE|America/Denver|3|1840017450
Warwick|Warwick|GA|Georgia|13321|Worth|31.8298|-83.9206|630|299|shape|FALSE|TRUE|America/New_York|3|1840015856
Ruby|Ruby|MI|Michigan|26147|St. Clair|43.0323|-82.6118|630|64|shape|FALSE|FALSE|America/Detroit|3|1840128020
Ranier|Ranier|MN|Minnesota|27071|Koochiching|48.6065|-93.3530|630|228|shape|FALSE|TRUE|America/Winnipeg|3|1840008816
Eureka|Eureka|UT|Utah|49023|Juab|39.9588|-112.1149|630|164|shape|FALSE|TRUE|America/Denver|3|1840020186
York|York|AZ|Arizona|04011|Greenlee|32.9175|-109.1960|630|130|shape|FALSE|FALSE|America/Phoenix|3|1840022951
Pinckard|Pinckard|AL|Alabama|01045|Dale|31.3173|-85.5430|629|45|shape|FALSE|TRUE|America/Chicago|3|1840017089
Ruth|Ruth|NC|North Carolina|37161|Rutherford|35.3824|-81.9448|629|572|shape|FALSE|TRUE|America/New_York|3|1840017833
Roxton|Roxton|TX|Texas|48277|Lamar|33.5453|-95.7248|629|281|shape|FALSE|TRUE|America/Chicago|3|1840020593
Ellerslie|Ellerslie|MD|Maryland|24001|Allegany|39.7169|-78.7747|629|263|shape|FALSE|FALSE|America/New_York|3|1840024422
Oldenburg|Oldenburg|IN|Indiana|18047|Franklin|39.3389|-85.2040|629|564|shape|FALSE|TRUE|America/Indiana/Indianapolis|3|1840009598
Hosford|Hosford|FL|Florida|12077|Liberty|30.3944|-84.8034|629|48|shape|FALSE|FALSE|America/New_York|3|1840026011
Sugar Grove|Sugar Grove|PA|Pennsylvania|42123|Warren|41.9837|-79.3395|629|216|shape|FALSE|TRUE|America/New_York|3|1840003333
Courtdale|Courtdale|PA|Pennsylvania|42079|Luzerne|41.2849|-75.9143|629|237|shape|FALSE|TRUE|America/New_York|3|1840000744
La Paz|La Paz|IN|Indiana|18099|Marshall|41.4561|-86.3082|629|626|shape|FALSE|TRUE|America/Indiana/Indianapolis|3|1840009302
Graceville|Graceville|MN|Minnesota|27011|Big Stone|45.5686|-96.4372|629|419|shape|FALSE|TRUE|America/Chicago|3|1840007791
Birch Tree|Birch Tree|MO|Missouri|29203|Shannon|36.9967|-91.4916|629|175|shape|FALSE|TRUE|America/Chicago|3|1840007617
Sardis|Sardis|OH|Ohio|39111|Monroe|39.6266|-80.9059|629|192|shape|FALSE|FALSE|America/New_York|3|1840026608
Atlanta|Atlanta|MI|Michigan|26119|Montmorency|45.0012|-84.1513|629|67|shape|FALSE|FALSE|America/Detroit|3|1840004026
Raymondville|Raymondville|MO|Missouri|29215|Texas|37.3398|-91.8364|628|82|shape|FALSE|TRUE|America/Chicago|3|1840010862
Big Sandy|Big Sandy|TN|Tennessee|47005|Benton|36.2327|-88.0850|628|380|shape|FALSE|TRUE|America/Chicago|3|1840015314
Kezar Falls|Kezar Falls|ME|Maine|23031|York|43.8080|-70.8831|628|315|shape|FALSE|FALSE|America/New_York|3|1840031519
Sherrard|Sherrard|IL|Illinois|17131|Mercer|41.3109|-90.4991|628|261|shape|FALSE|TRUE|America/Chicago|3|1840011682
Dalzell|Dalzell|IL|Illinois|17011|Bureau|41.3559|-89.1763|628|295|shape|FALSE|TRUE|America/Chicago|3|1840011571
Winona|Winona|TX|Texas|48423|Smith|32.4928|-95.1730|628|157|shape|FALSE|TRUE|America/Chicago|3|1840023047
Hillsboro Pines|Hillsboro Pines|FL|Florida|12011|Broward|26.3253|-80.1947|628|2257.8|shape|FALSE|FALSE|America/New_York|2|1840029106
Tekonsha|Tekonsha|MI|Michigan|26025|Calhoun|42.0964|-84.9903|628|254|shape|FALSE|TRUE|America/Detroit|3|1840011202
Austin|Austin|PA|Pennsylvania|42105|Potter|41.6373|-78.0903|628|59|shape|FALSE|TRUE|America/New_York|3|1840003306
Honduras|Honduras|PR|Puerto Rico|72041|Cidra|18.1412|-66.2004|628|357.5|shape|FALSE|FALSE|America/Puerto_Rico|3|1630151309
San Ardo|San Ardo|CA|California|06053|Monterey|36.0238|-120.9074|628|539|shape|FALSE|FALSE|America/Los_Angeles|3|1840019021
Osino|Osino|NV|Nevada|32007|Elko|40.9409|-115.6607|628|94|shape|FALSE|FALSE|America/Los_Angeles|3|1840024119
Smithville|Smithville|MS|Mississippi|28095|Monroe|34.0680|-88.3983|628|163|shape|FALSE|TRUE|America/Chicago|3|1840017979
North Troy|North Troy|VT|Vermont|50019|Orleans|44.9963|-72.4038|627|129|shape|FALSE|TRUE|America/New_York|3|1840004050
Stanton|Stanton|IA|Iowa|19137|Montgomery|40.9812|-95.1027|627|255|shape|FALSE|TRUE|America/Chicago|3|1840009345
Big Delta|Big Delta|AK|Alaska|02240|Southeast Fairbanks|64.1486|-145.7453|627|5|shape|FALSE|FALSE|America/Anchorage|3|1840023468
Lime Springs|Lime Springs|IA|Iowa|19089|Howard|43.4499|-92.2841|627|238|shape|FALSE|TRUE|America/Chicago|3|1840009036
Fern Forest|Fern Forest|HI|Hawaii|15001|Hawaii|19.4648|-155.1324|627|19|shape|FALSE|FALSE|Pacific/Honolulu|3|1840029571
Thornton|Thornton|TX|Texas|48293|Limestone|31.4111|-96.5738|627|246|shape|FALSE|TRUE|America/Chicago|3|1840023117
Yah-ta-hey|Yah-ta-hey|NM|New Mexico|35031|McKinley|35.6291|-108.7927|627|70|shape|FALSE|FALSE|America/Denver|3|1840019094
Hot Springs|Hot Springs|MT|Montana|30089|Sanders|47.6091|-114.6705|627|313.9|shape|FALSE|TRUE|America/Denver|3|1840021084
Lyons Falls|Lyons Falls|NY|New York|36049|Lewis|43.6170|-75.3618|627|248|shape|FALSE|TRUE|America/New_York|3|1840004135
Pavo|Pavo|GA|Georgia|13275|Thomas|30.9597|-83.7380|627|137|shape|FALSE|TRUE|America/New_York|3|1840014994
Merigold|Merigold|MS|Mississippi|28011|Bolivar|33.8392|-90.7264|627|249|shape|FALSE|TRUE|America/Chicago|3|1840016745
Rosebud|Rosebud|MO|Missouri|29073|Gasconade|38.3851|-91.4024|627|278|shape|FALSE|TRUE|America/Chicago|3|1840009642
Pleasant Plains|Pleasant Plains|NJ|New Jersey|34035|Somerset|40.4523|-74.5696|627|75|shape|FALSE|FALSE|America/New_York|3|1840033383
Kingfield|Kingfield|ME|Maine|23007|Franklin|44.9582|-70.1592|627|66|shape|FALSE|FALSE|America/New_York|3|1840152992
Leawood|Leawood|MO|Missouri|29145|Newton|37.0333|-94.4948|626|195|shape|FALSE|TRUE|America/Chicago|3|1840013044
Seven Valleys|Seven Valleys|PA|Pennsylvania|42133|York|39.8545|-76.7667|626|221|shape|FALSE|TRUE|America/New_York|3|1840001462
Harrah|Harrah|WA|Washington|53077|Yakima|46.4061|-120.5410|626|496.7|shape|FALSE|TRUE|America/Los_Angeles|3|1840021156
Morganza|Morganza|LA|Louisiana|22077|Pointe Coupee|30.7384|-91.5920|626|200|shape|FALSE|TRUE|America/Chicago|3|1840018201
Polvadera|Polvadera|NM|New Mexico|35053|Socorro|34.2020|-106.9172|626|249|shape|FALSE|FALSE|America/Denver|3|1840025015
Ansonville|Ansonville|NC|North Carolina|37007|Anson|35.1041|-80.1097|625|163|shape|FALSE|TRUE|America/New_York|3|1840015479
Hawk Run|Hawk Run|PA|Pennsylvania|42033|Clearfield|40.9228|-78.2042|625|300|shape|FALSE|FALSE|America/New_York|3|1840026357
Sedillo|Sedillo|NM|New Mexico|35001|Bernalillo|35.0906|-106.2869|625|87|shape|FALSE|FALSE|America/Denver|3|1840024975
Agency|Agency|IA|Iowa|19179|Wapello|40.9970|-92.3073|625|426|shape|FALSE|TRUE|America/Chicago|3|1840007149
Zanesville|Zanesville|IN|Indiana|18179|Wells|40.9155|-85.2806|625|291|shape|FALSE|TRUE|America/Indiana/Indianapolis|3|1840010299
Eminence|Eminence|MO|Missouri|29203|Shannon|37.1509|-91.3586|625|128|shape|FALSE|TRUE|America/Chicago|3|1840008758
Lovilia|Lovilia|IA|Iowa|19135|Monroe|41.1349|-92.9080|625|462|shape|FALSE|TRUE|America/Chicago|3|1840009342
Beech Bottom|Beech Bottom|WV|West Virginia|54009|Brooke|40.2181|-80.6588|625|207|shape|FALSE|TRUE|America/New_York|3|1840005481
Gould|Gould|AR|Arkansas|05079|Lincoln|33.9872|-91.5641|624|155|shape|FALSE|TRUE|America/Chicago|3|1840013664
Boomer|Boomer|WV|West Virginia|54019|Fayette|38.1490|-81.2800|624|228|shape|FALSE|FALSE|America/New_York|3|1840025677
Port Deposit|Port Deposit|MD|Maryland|24015|Cecil|39.6111|-76.0980|624|106|shape|FALSE|TRUE|America/New_York|3|1840005641
Iberia|Iberia|OH|Ohio|39117|Morrow|40.6747|-82.8403|624|62|shape|FALSE|FALSE|America/New_York|3|1840026426
Lawrenceville|Lawrenceville|PA|Pennsylvania|42117|Tioga|41.9959|-77.1304|624|392|shape|FALSE|TRUE|America/New_York|3|1840003299
Pitkin|Pitkin|LA|Louisiana|22115|Vernon|30.9344|-92.9267|624|38|shape|FALSE|FALSE|America/Chicago|3|1840025974
Franklin|Franklin|IL|Illinois|17137|Morgan|39.6205|-90.0477|624|290|shape|FALSE|TRUE|America/Chicago|3|1840012511
Sinclairville|Sinclairville|NY|New York|36013|Chautauqua|42.2653|-79.2590|624|148|shape|FALSE|TRUE|America/New_York|3|1840004572
East Orosi|East Orosi|CA|California|06107|Tulare|36.5481|-119.2599|624|888.4|shape|FALSE|FALSE|America/Los_Angeles|3|1840019033
Oakland|Oakland|PA|Pennsylvania|42115|Susquehanna|41.9506|-75.6095|624|539|shape|FALSE|TRUE|America/New_York|3|1840003327
East Newnan|East Newnan|GA|Georgia|13077|Coweta|33.3461|-84.7763|624|85|shape|FALSE|FALSE|America/New_York|3|1840013097
Waubeka|Waubeka|WI|Wisconsin|55089|Ozaukee|43.4708|-87.9926|624|98|shape|FALSE|FALSE|America/Chicago|3|1840024030
Tabernash|Tabernash|CO|Colorado|08049|Grand|39.9788|-105.8441|624|49|shape|FALSE|FALSE|America/Denver|3|1840018759
Knoxville|Knoxville|AR|Arkansas|05071|Johnson|35.3780|-93.3630|623|75|shape|FALSE|TRUE|America/Chicago|3|1840016299
Carlock|Carlock|IL|Illinois|17113|McLean|40.5835|-89.1288|623|608|shape|FALSE|TRUE|America/Chicago|3|1840010375
Solomon|Solomon|AZ|Arizona|04009|Graham|32.8138|-109.6290|623|528.1|shape|FALSE|FALSE|America/Phoenix|3|1840022961
Arnett|Arnett|OK|Oklahoma|40045|Ellis|36.1345|-99.7727|623|465|shape|FALSE|TRUE|America/Chicago|3|1840020375
Toomsuba|Toomsuba|MS|Mississippi|28075|Lauderdale|32.4267|-88.5100|623|51|shape|FALSE|FALSE|America/Chicago|3|1840025907
McKenna|McKenna|WA|Washington|53053|Pierce|46.9365|-122.5501|623|221|shape|FALSE|FALSE|America/Los_Angeles|3|1840023836
Thayer|Thayer|IL|Illinois|17167|Sangamon|39.5404|-89.7580|622|393|shape|FALSE|TRUE|America/Chicago|3|1840012458
Furman|Furman|SC|South Carolina|45049|Hampton|32.6813|-81.1877|622|77|shape|FALSE|TRUE|America/New_York|3|1840016925
Cedarville|Cedarville|IL|Illinois|17177|Stephenson|42.3757|-89.6362|622|523|shape|FALSE|TRUE|America/Chicago|3|1840010105
Cloverdale|Cloverdale|MS|Mississippi|28001|Adams|31.4960|-91.4152|622|211|shape|FALSE|FALSE|America/Chicago|3|1840025950
Wattsville|Wattsville|VA|Virginia|51001|Accomack|37.9301|-75.4943|622|55|shape|FALSE|FALSE|America/New_York|3|1840024748
Barnhill|Barnhill|OH|Ohio|39157|Tuscarawas|40.4497|-81.3679|622|289.7|shape|FALSE|TRUE|America/New_York|3|1840012085
Page Park|Page Park|FL|Florida|12071|Lee|26.5782|-81.8614|621|941.6|shape|FALSE|FALSE|America/New_York|3|1840028749
Brooks|Brooks|OR|Oregon|41047|Marion|45.0508|-122.9575|621|469|shape|FALSE|FALSE|America/Los_Angeles|3|1840017420
Armorel|Armorel|AR|Arkansas|05093|Mississippi|35.9223|-89.8009|621|172|shape|FALSE|FALSE|America/Chicago|3|1840027699
Corn|Corn|OK|Oklahoma|40149|Washita|35.3790|-98.7818|621|345.7|shape|FALSE|TRUE|America/Chicago|3|1840022761
Smiley|Smiley|TX|Texas|48177|Gonzales|29.2713|-97.6376|621|460|shape|FALSE|TRUE|America/Chicago|3|1840022218
Brevig Mission|Brevig Mission|AK|Alaska|02180|Nome|65.3413|-166.4953|621|98|shape|FALSE|TRUE|America/Nome|3|1840023504
Oconomowoc Lake|Oconomowoc Lake|WI|Wisconsin|55133|Waukesha|43.0975|-88.4521|621|124|shape|FALSE|TRUE|America/Chicago|3|1840003028
Powellton|Powellton|WV|West Virginia|54019|Fayette|38.0941|-81.3220|621|44|shape|FALSE|FALSE|America/New_York|3|1840006292
Horseshoe Bend|Horseshoe Bend|TX|Texas|48367|Parker|32.5752|-97.8782|621|145|shape|FALSE|TRUE|America/Chicago|4|1840042591
Lockesburg|Lockesburg|AR|Arkansas|05133|Sevier|33.9716|-94.1761|621|68|shape|FALSE|TRUE|America/Chicago|3|1840015607
Fallon Station|Fallon Station|NV|Nevada|32001|Churchill|39.4150|-118.7165|621|84|shape|TRUE|TRUE|America/Los_Angeles|4|1840073918
Big Point|Big Point|MS|Mississippi|28059|Jackson|30.5905|-88.4846|620|81|shape|FALSE|FALSE|America/Chicago|3|1840013933
Calpella|Calpella|CA|California|06045|Mendocino|39.2323|-123.1970|620|93|shape|FALSE|FALSE|America/Los_Angeles|3|1840025582
Napoleonville|Napoleonville|LA|Louisiana|22007|Assumption|29.9384|-91.0263|620|353.8|shape|FALSE|TRUE|America/Chicago|3|1840018259
Stebbins|Stebbins|AK|Alaska|02180|Nome|63.4705|-162.2599|620|7|shape|FALSE|TRUE|America/Nome|3|1840023499
Big Water|Big Water|UT|Utah|49025|Kane|37.0729|-111.6608|620|39|shape|FALSE|TRUE|America/Denver|3|1840020326
Pennington|Pennington|AL|Alabama|01023|Choctaw|32.2010|-88.0378|620|45|shape|FALSE|TRUE|America/Chicago|3|1840017019
Hindman|Hindman|KY|Kentucky|21119|Knott|37.3350|-82.9819|619|76|shape|FALSE|TRUE|America/New_York|3|1840014373
Los Luceros|Los Luceros|NM|New Mexico|35039|Rio Arriba|36.1151|-106.0371|619|145|shape|FALSE|FALSE|America/Denver|3|1840024837
Smallwood|Smallwood|NY|New York|36105|Sullivan|41.6606|-74.8159|619|99|shape|FALSE|FALSE|America/New_York|3|1840004787
Brazos Country|Brazos Country|TX|Texas|48015|Austin|29.7541|-96.0416|619|122|shape|FALSE|TRUE|America/Chicago|3|1840019625
Mohrsville|Mohrsville|PA|Pennsylvania|42011|Berks|40.4781|-75.9851|619|366|shape|FALSE|FALSE|America/New_York|3|1840026450
Pueblito del Carmen|Pueblito del Carmen|PR|Puerto Rico|72057|Guayama|18.0316|-66.1656|619|262|shape|FALSE|TRUE|America/Puerto_Rico|3|1630027037
Limestone|Limestone|OK|Oklahoma|40131|Rogers|36.3143|-95.7477|619|75|shape|FALSE|FALSE|America/Chicago|3|1840034643
Arcadia|Arcadia|MO|Missouri|29093|Iron|37.5864|-90.6292|619|289|shape|FALSE|TRUE|America/Chicago|3|1840007584
Hammondsport|Hammondsport|NY|New York|36101|Steuben|42.4082|-77.2234|619|395.8|shape|FALSE|TRUE|America/New_York|3|1840004549
Dubois|Dubois|ID|Idaho|16033|Clark|44.1727|-112.2293|619|87|shape|FALSE|TRUE|America/Boise|3|1840018614
Corriganville|Corriganville|MD|Maryland|24001|Allegany|39.6947|-78.7970|619|264.1|shape|FALSE|FALSE|America/New_York|3|1840024419
Barnum|Barnum|MN|Minnesota|27017|Carlton|46.5054|-92.6884|618|236|shape|FALSE|TRUE|America/Chicago|3|1840006649
Louisville|Louisville|AL|Alabama|01005|Barbour|31.7810|-85.5583|618|86|shape|FALSE|TRUE|America/Chicago|4|1840003795
Dugway|Dugway|UT|Utah|49045|Tooele|40.2307|-112.7541|618|45|shape|TRUE|TRUE|America/Denver|4|1840018739
McDowell|McDowell|KY|Kentucky|21071|Floyd|37.4590|-82.7340|618|96|shape|FALSE|FALSE|America/New_York|3|1840030513
Tryon|Tryon|OK|Oklahoma|40081|Lincoln|35.8805|-96.9661|618|114|shape|FALSE|TRUE|America/Chicago|3|1840022714
Berlin|Berlin|AL|Alabama|01043|Cullman|34.1862|-86.7473|618|200|shape|FALSE|TRUE|America/Chicago|3|1840146895
Bobtown|Bobtown|PA|Pennsylvania|42059|Greene|39.7603|-79.9848|618|387|shape|FALSE|FALSE|America/New_York|3|1840026585
Windsor|Windsor|NJ|New Jersey|34021|Mercer|40.2465|-74.5814|618|207|shape|FALSE|FALSE|America/New_York|3|1840033447
Green Acres|Green Acres|ND|North Dakota|38079|Rolette|48.8381|-99.6901|618|158|shape|FALSE|TRUE|America/Chicago|4|1840040312
Cañada de los Alamos|Canada de los Alamos|NM|New Mexico|35049|Santa Fe|35.5927|-105.8597|618|64|shape|FALSE|FALSE|America/Denver|3|1840017767
Bradley|Bradley|AR|Arkansas|05073|Lafayette|33.0993|-93.6569|617|260|shape|FALSE|TRUE|America/Chicago|3|1840013765
Peck|Peck|MI|Michigan|26151|Sanilac|43.2588|-82.8167|617|228|shape|FALSE|TRUE|America/Detroit|3|1840010982
Bowman|Bowman|SC|South Carolina|45075|Orangeburg|33.3483|-80.6843|617|202|shape|FALSE|TRUE|America/New_York|3|1840015693
Ivanhoe|Ivanhoe|MN|Minnesota|27081|Lincoln|44.4655|-96.2508|617|367|shape|FALSE|TRUE|America/Chicago|3|1840007874
Franklin|Franklin|KS|Kansas|20037|Crawford|37.5230|-94.6994|617|139|shape|FALSE|FALSE|America/Chicago|3|1840026831
Lidgerwood|Lidgerwood|ND|North Dakota|38077|Richland|46.0738|-97.1451|617|365|shape|FALSE|TRUE|America/Chicago|3|1840000233
North Powder|North Powder|OR|Oregon|41061|Union|45.0300|-117.9205|616|378|shape|FALSE|TRUE|America/Los_Angeles|3|1840019923
Winside|Winside|NE|Nebraska|31179|Wayne|42.1773|-97.1751|616|362.9|shape|FALSE|TRUE|America/Chicago|3|1840011215
Linden|Linden|WI|Wisconsin|55049|Iowa|42.9184|-90.2742|616|304|shape|FALSE|TRUE|America/Chicago|3|1840002960
